header:
  stamp:
    sec: 1747464364
    nanosec: 398651944
  frame_id: camera_link
names:
- chair
points:
- x: 0.6793179012417497
  y: -2.017246148570814
  z: -0.74252695961758
widths:
- 0.5756027698516846
heights:
- 0.8114320039749146
---
header:
  stamp:
    sec: 1747464365
    nanosec: 151537209
  frame_id: camera_link
names:
- chair
- side cabinet
points:
- x: 0.6752911707422888
  y: -1.9744831303595811
  z: -0.7344749806574119
- x: 0.7496368692614108
  y: -2.708644508769573
  z: 0.4695991613185926
widths:
- 0.5630719065666199
- 0.6867658495903015
heights:
- 0.7933728694915771
- 0.6542776823043823
---
header:
  stamp:
    sec: 1747464365
    nanosec: 845655189
  frame_id: camera_link
names:
- chair
points:
- x: 0.6753108392458302
  y: -2.033635993992024
  z: -0.7304385250355343
widths:
- 0.5798025727272034
heights:
- 0.8166581392288208
---
header:
  stamp:
    sec: 1747464366
    nanosec: 478658938
  frame_id: camera_link
names:
- chair
points:
- x: 0.6707081369451875
  y: -1.9873263617004269
  z: -0.7214804879553894
widths:
- 0.5666298866271973
heights:
- 0.7984761595726013
---
header:
  stamp:
    sec: 1747464367
    nanosec: 176375740
  frame_id: camera_link
names:
- chair
points:
- x: 0.678199862221007
  y: -1.9852924339951763
  z: -0.7405051870176801
widths:
- 0.5702981352806091
heights:
- 0.7998480796813965
---
header:
  stamp:
    sec: 1747464367
    nanosec: 797297417
  frame_id: camera_link
names:
- chair
points:
- x: 0.6671760266603453
  y: -2.0370153347405826
  z: -0.7304779806507541
widths:
- 0.5791725516319275
heights:
- 0.8189547061920166
---
header:
  stamp:
    sec: 1747464368
    nanosec: 416879865
  frame_id: camera_link
names:
- chair
points:
- x: 0.6662616790196674
  y: -2.0083013453678165
  z: -0.7206559538536464
widths:
- 0.5743041038513184
heights:
- 0.8088390827178955
---
header:
  stamp:
    sec: 1747464369
    nanosec: 69167145
  frame_id: camera_link
names:
- office chair
- chair
points:
- x: 0.679298133662184
  y: -1.9812013932532055
  z: -0.7465623637763422
- x: 0.6793180365015462
  y: -1.9804227769741063
  z: -0.74252695961758
widths:
- 0.5641587376594543
- 0.5654861330986023
heights:
- 0.7986027002334595
- 0.7969558238983154
---
header:
  stamp:
    sec: 1747464369
    nanosec: 675596481
  frame_id: camera_link
names:
- chair
points:
- x: 0.6710596975881984
  y: -1.989211040411149
  z: -0.7221647031613343
widths:
- 0.5690686106681824
heights:
- 0.7999060153961182
---
header:
  stamp:
    sec: 1747464370
    nanosec: 299333722
  frame_id: camera_link
names:
- chair
points:
- x: 0.6742079653406636
  y: -2.0045510434303027
  z: -0.7365438827515107
widths:
- 0.5752218961715698
heights:
- 0.8068485260009766
---
header:
  stamp:
    sec: 1747464370
    nanosec: 922544630
  frame_id: camera_link
names:
- chair
- side cabinet
points:
- x: 0.66624212882366
  y: -2.029019202439002
  z: -0.7246382041116117
- x: 0.7443842693291864
  y: -2.68611927939151
  z: 0.4643479804837928
widths:
- 0.580812394618988
- 0.6810135245323181
heights:
- 0.8162385821342468
- 0.6497026085853577
---
header:
  stamp:
    sec: 1747464371
    nanosec: 570450004
  frame_id: camera_link
names:
- chair
points:
- x: 0.6662617618504425
  y: -1.9857513453679685
  z: -0.7206559538536464
widths:
- 0.5648959279060364
heights:
- 0.7987651824951172
---
header:
  stamp:
    sec: 1747464372
    nanosec: 154948440
  frame_id: camera_link
names:
- chair
points:
- x: 0.6793379329207072
  y: -1.9938487216437566
  z: -0.738491197744622
widths:
- 0.5675649642944336
heights:
- 0.8033219575881958
---
header:
  stamp:
    sec: 1747464372
    nanosec: 759493502
  frame_id: camera_link
names:
- chair
points:
- x: 0.6631278704803532
  y: -1.9823542750329906
  z: -0.7264607574770932
widths:
- 0.5639022588729858
heights:
- 0.7975999712944031
---
header:
  stamp:
    sec: 1747464373
    nanosec: 350580232
  frame_id: camera_link
names:
- chair
- office chair
points:
- x: 0.6803025573796415
  y: -1.974884513825734
  z: -0.728789677272955
- x: 0.6831463428406993
  y: -1.989652092320031
  z: -0.7342393421468331
widths:
- 0.5608639717102051
- 0.5595422983169556
heights:
- 0.7936830520629883
- 0.7998255491256714
---
header:
  stamp:
    sec: 1747464374
    nanosec: 28253873
  frame_id: camera_link
names:
- chair
- office chair
points:
- x: 0.6808366190326617
  y: -1.998631833687104
  z: -0.7375731014621755
- x: 0.6591564739510334
  y: -2.0291368031400494
  z: -0.7062906928708907
widths:
- 0.5685482621192932
- 0.5758140087127686
heights:
- 0.802704930305481
- 0.8170852661132812
---
header:
  stamp:
    sec: 1747464374
    nanosec: 687406335
  frame_id: camera_link
names:
- chair
- side cabinet
points:
- x: 0.6671958093118087
  y: -1.9944450987989752
  z: -0.7264412195881579
- x: 0.7391134496100324
  y: -2.685862724082995
  z: 0.4643652670420166
widths:
- 0.5689096450805664
- 0.6795260310173035
heights:
- 0.8022841811180115
- 0.6527214646339417
---
header:
  stamp:
    sec: 1747464375
    nanosec: 313646033
  frame_id: camera_link
names:
- chair
points:
- x: 0.6793577356719476
  y: -2.044586919788353
  z: -0.7344550721838596
widths:
- 0.5842791199684143
heights:
- 0.8231279253959656
---
header:
  stamp:
    sec: 1747464375
    nanosec: 909695014
  frame_id: camera_link
names:
- chair
- office chair
points:
- x: 0.6742471695978838
  y: -2.033612485811443
  z: -0.7285810275959616
- x: 0.6742472270528558
  y: -2.0179708403492924
  z: -0.7285810275959616
widths:
- 0.5818008184432983
- 0.5737208127975464
heights:
- 0.8185286521911621
- 0.8123703002929688
---
header:
  stamp:
    sec: 1747464376
    nanosec: 531891326
  frame_id: camera_link
names:
- chair
points:
- x: 0.6773818865498393
  y: -1.9805013862144318
  z: -0.7308822591830119
widths:
- 0.5642025470733643
heights:
- 0.7968248128890991
---
header:
  stamp:
    sec: 1747464377
    nanosec: 135136825
  frame_id: camera_link
names:
- chair
points:
- x: 0.6792979116536675
  y: -2.0416413932527977
  z: -0.7465623637763422
widths:
- 0.5803419947624207
heights:
- 0.820993185043335
---
